{
"type": "FeatureCollection",
"crs": { "type": "name", "properties": { "name": "urn:ogc:def:crs:OGC:1.3:CRS84" } },
"features": [
{ "type": "Feature", "properties": { "OBJECTID": 12, "ID_0": 12, "ISO": "ARG", "NAME_ENGLI": "Argentina", "NAME_ISO": "ARGENTINA", "NAME_FAO": "Argentina", "NAME_LOCAL": "Argentina", "NAME_ARABI": "الأرجنتين", "SOVEREIGN": "Argentina", "FIPS": "AR", "ISON": 32.0, "POP2000": 37031814.0, "Shape_Leng": 217.98710211599999, "Shape_Area": 278.26730535000002, "orig_ogc_fid": 11 }, "geometry": { "type": "Point", "coordinates": [ -65.166997677108242, -35.389959999047122 ] } },
{ "type": "Feature", "properties": { "OBJECTID": 28, "ID_0": 28, "ISO": "BOL", "NAME_ENGLI": "Bolivia", "NAME_ISO": "BOLIVIA", "NAME_FAO": "Bolivia", "NAME_LOCAL": "Bolivia", "NAME_ARABI": "بوليفيا", "SOVEREIGN": "Bolivia", "FIPS": "BL", "ISON": 68.0, "POP2000": 8328685.0, "Shape_Leng": 61.105109382499997, "Shape_Area": 91.916600042799999, "orig_ogc_fid": 27 }, "geometry": { "type": "Point", "coordinates": [ -64.656757096314578, -16.713338279645402 ] } },
{ "type": "Feature", "properties": { "OBJECTID": 48, "ID_0": 48, "ISO": "CHL", "NAME_ENGLI": "Chile", "NAME_ISO": "CHILE", "NAME_FAO": "Chile", "NAME_LOCAL": "Chile", "NAME_ARABI": "شيلي", "SOVEREIGN": "Chile", "FIPS": "CI", "ISON": 152.0, "POP2000": 15211308.0, "Shape_Leng": 1256.1705325600001, "Shape_Area": 79.270432592099993, "orig_ogc_fid": 47 }, "geometry": { "type": "Point", "coordinates": [ -71.391894892244792, -38.027142901873141 ] } },
{ "type": "Feature", "properties": { "OBJECTID": 53, "ID_0": 53, "ISO": "COL", "NAME_ENGLI": "Colombia", "NAME_ISO": "COLOMBIA", "NAME_FAO": "Colombia", "NAME_LOCAL": "Colombia", "NAME_ARABI": "كولومبيا", "SOVEREIGN": "Colombia", "FIPS": "CO", "ISON": 170.0, "POP2000": 42104701.0, "Shape_Leng": 112.576522371, "Shape_Area": 92.688604665400007, "orig_ogc_fid": 52 }, "geometry": { "type": "Point", "coordinates": [ -73.086148564083373, 3.903453451137588 ] } },
{ "type": "Feature", "properties": { "OBJECTID": 66, "ID_0": 66, "ISO": "DOM", "NAME_ENGLI": "Dominican Republic", "NAME_ISO": "DOMINICAN REPUBLIC", "NAME_FAO": "Dominican Republic", "NAME_LOCAL": "República Dominicana", "NAME_ARABI": "الجمهورية الدومينيكية", "SOVEREIGN": "República Dominicana", "FIPS": "DR", "ISON": 214.0, "POP2000": 8372695.0, "Shape_Leng": 23.170423249100001, "Shape_Area": 4.1239324711599998, "orig_ogc_fid": 65 }, "geometry": { "type": "Point", "coordinates": [ -70.492884121992944, 18.895715910787821 ] } },
{ "type": "Feature", "properties": { "OBJECTID": 68, "ID_0": 68, "ISO": "ECU", "NAME_ENGLI": "Ecuador", "NAME_ISO": "ECUADOR", "NAME_FAO": "Ecuador", "NAME_LOCAL": "Ecuador", "NAME_ARABI": "إكوادور", "SOVEREIGN": "Ecuador", "FIPS": "EC", "ISON": 218.0, "POP2000": 12645796.0, "Shape_Leng": 58.872713048400001, "Shape_Area": 20.8599491849, "orig_ogc_fid": 67 }, "geometry": { "type": "Point", "coordinates": [ -78.772840096705906, -1.428431588815509 ] } },
{ "type": "Feature", "properties": { "OBJECTID": 87, "ID_0": 87, "ISO": "GHA", "NAME_ENGLI": "Ghana", "NAME_ISO": "GHANA", "NAME_FAO": "Ghana", "NAME_LOCAL": "Ghana", "NAME_ARABI": "غانا", "SOVEREIGN": "Ghana", "FIPS": "GH", "ISON": 288.0, "POP2000": 19305633.0, "Shape_Leng": 30.6141422904, "Shape_Area": 19.5534437349, "orig_ogc_fid": 86 }, "geometry": { "type": "Point", "coordinates": [ -1.210711246175103, 7.966776747865736 ] } },
{ "type": "Feature", "properties": { "OBJECTID": 94, "ID_0": 94, "ISO": "GTM", "NAME_ENGLI": "Guatemala", "NAME_ISO": "GUATEMALA", "NAME_FAO": "Guatemala", "NAME_LOCAL": "Guatemala", "NAME_ARABI": "غواتيمال", "SOVEREIGN": "Guatemala", "FIPS": "GT", "ISON": 320.0, "POP2000": 11385320.0, "Shape_Leng": 21.228402201800002, "Shape_Area": 9.2035972055300004, "orig_ogc_fid": 93 }, "geometry": { "type": "Point", "coordinates": [ -90.354657414299055, 15.697564116641267 ] } },
{ "type": "Feature", "properties": { "OBJECTID": 99, "ID_0": 99, "ISO": "HTI", "NAME_ENGLI": "Haiti", "NAME_ISO": "HAITI", "NAME_FAO": "Haiti", "NAME_LOCAL": "Haiti", "NAME_ARABI": "هايتي", "SOVEREIGN": "Haiti", "FIPS": "HA", "ISON": 332.0, "POP2000": 8142471.0, "Shape_Leng": 25.390102894200002, "Shape_Area": 2.32501384574, "orig_ogc_fid": 98 }, "geometry": { "type": "Point", "coordinates": [ -72.683939083167587, 18.937387469267271 ] } },
{ "type": "Feature", "properties": { "OBJECTID": 105, "ID_0": 105, "ISO": "IND", "NAME_ENGLI": "India", "NAME_ISO": "INDIA", "NAME_FAO": "India", "NAME_LOCAL": "Bharat", "NAME_ARABI": "الهند", "SOVEREIGN": "India", "FIPS": "IN", "ISON": 356.0, "POP2000": 1008937356.0, "Shape_Leng": 337.176949734, "Shape_Area": 278.702427118, "orig_ogc_fid": 104 }, "geometry": { "type": "Point", "coordinates": [ 79.620833505286825, 22.88262855169155 ] } },
{ "type": "Feature", "properties": { "OBJECTID": 111, "ID_0": 111, "ISO": "ISR", "NAME_ENGLI": "Israel", "NAME_ISO": "ISRAEL", "NAME_FAO": "Israel", "NAME_LOCAL": "Yisra'el", "NAME_ARABI": "إسرائيل", "SOVEREIGN": "Israel", "FIPS": "IS", "ISON": 376.0, "POP2000": 6040427.0, "Shape_Leng": 12.716012445400001, "Shape_Area": 2.1029466598800002, "orig_ogc_fid": 110 }, "geometry": { "type": "Point", "coordinates": [ 35.013168669906442, 31.455681580533991 ] } },
{ "type": "Feature", "properties": { "OBJECTID": 116, "ID_0": 116, "ISO": "JOR", "NAME_ENGLI": "Jordan", "NAME_ISO": "JORDAN", "NAME_FAO": "Jordan", "NAME_LOCAL": "Al Urdun", "NAME_ARABI": "الأردن", "SOVEREIGN": "Jordan", "FIPS": "JO", "ISON": 400.0, "POP2000": 4913115.0, "Shape_Leng": 16.5375394458, "Shape_Area": 8.43963526846, "orig_ogc_fid": 115 }, "geometry": { "type": "Point", "coordinates": [ 36.788883627969739, 31.249261399438467 ] } },
{ "type": "Feature", "properties": { "OBJECTID": 118, "ID_0": 118, "ISO": "KEN", "NAME_ENGLI": "Kenya", "NAME_ISO": "KENYA", "NAME_FAO": "Kenya", "NAME_LOCAL": "Kenya", "NAME_ARABI": "كينيا", "SOVEREIGN": "Kenya", "FIPS": "KE", "ISON": 404.0, "POP2000": 30668697.0, "Shape_Leng": 48.650298855700001, "Shape_Area": 47.642534699099997, "orig_ogc_fid": 117 }, "geometry": { "type": "Point", "coordinates": [ 37.845667982127473, 0.552740914249299 ] } },
{ "type": "Feature", "properties": { "OBJECTID": 135, "ID_0": 135, "ISO": "MWI", "NAME_ENGLI": "Malawi", "NAME_ISO": "MALAWI", "NAME_FAO": "Malawi", "NAME_LOCAL": "Malawi", "NAME_ARABI": "مالاوي", "SOVEREIGN": "Malawi", "FIPS": "MI", "ISON": 454.0, "POP2000": 11308352.0, "Shape_Leng": 27.2571497233, "Shape_Area": 9.8479745593899999, "orig_ogc_fid": 134 }, "geometry": { "type": "Point", "coordinates": [ 34.300482137711278, -13.21507700196987 ] } },
{ "type": "Feature", "properties": { "OBJECTID": 157, "ID_0": 157, "ISO": "NPL", "NAME_ENGLI": "Nepal", "NAME_ISO": "NEPAL", "NAME_FAO": "Nepal", "NAME_LOCAL": "Nepal", "NAME_ARABI": "نيبال", "SOVEREIGN": "Nepal", "FIPS": "NP", "ISON": 524.0, "POP2000": 23042704.0, "Shape_Leng": 31.264646235600001, "Shape_Area": 13.580445556800001, "orig_ogc_fid": 156 }, "geometry": { "type": "Point", "coordinates": [ 83.946082336268177, 28.259041228322609 ] } },
{ "type": "Feature", "properties": { "OBJECTID": 161, "ID_0": 161, "ISO": "NIC", "NAME_ENGLI": "Nicaragua", "NAME_ISO": "NICARAGUA", "NAME_FAO": "Nicaragua", "NAME_LOCAL": "Nicaragua", "NAME_ARABI": "نيكاراجوا", "SOVEREIGN": "Nicaragua", "FIPS": "NU", "ISON": 558.0, "POP2000": 5071423.0, "Shape_Leng": 32.547474926500001, "Shape_Area": 10.6785027743, "orig_ogc_fid": 160 }, "geometry": { "type": "Point", "coordinates": [ -85.038390147202989, 12.84390878102546 ] } },
{ "type": "Feature", "properties": { "OBJECTID": 178, "ID_0": 178, "ISO": "PER", "NAME_ENGLI": "Peru", "NAME_ISO": "PERU", "NAME_FAO": "Peru", "NAME_LOCAL": "Perú", "NAME_ARABI": "بيرو", "SOVEREIGN": "Perú", "FIPS": "PE", "ISON": 604.0, "POP2000": 25661679.0, "Shape_Leng": 101.52198362, "Shape_Area": 106.649954943, "orig_ogc_fid": 177 }, "geometry": { "type": "Point", "coordinates": [ -74.356518068149001, -9.173382932899278 ] } },
{ "type": "Feature", "properties": { "OBJECTID": 188, "ID_0": 188, "ISO": "RUS", "NAME_ENGLI": "Russia", "NAME_ISO": "RUSSIAN FEDERATION", "NAME_FAO": "Russian Federation", "NAME_LOCAL": "Rossiya", "NAME_ARABI": "روسيا", "SOVEREIGN": "Russia", "FIPS": "RS", "ISON": 643.0, "POP2000": 145491166.0, "Shape_Leng": 2656.3627841399998, "Shape_Area": 2920.75892767, "orig_ogc_fid": 187 }, "geometry": { "type": "Point", "coordinates": [ 96.723199433384437, 61.980720995981301 ] } },
{ "type": "Feature", "properties": { "OBJECTID": 189, "ID_0": 189, "ISO": "RWA", "NAME_ENGLI": "Rwanda", "NAME_ISO": "RWANDA", "NAME_FAO": "Rwanda", "NAME_LOCAL": "Rwanda", "NAME_ARABI": "رواندا", "SOVEREIGN": "Rwanda", "FIPS": "RW", "ISON": 646.0, "POP2000": 7608928.0, "Shape_Leng": 9.0899113856000007, "Shape_Area": 2.0568584539099999, "orig_ogc_fid": 188 }, "geometry": { "type": "Point", "coordinates": [ 29.925994932058565, -1.999928370029278 ] } },
{ "type": "Feature", "properties": { "OBJECTID": 232, "ID_0": 232, "ISO": "TON", "NAME_ENGLI": "Tonga", "NAME_ISO": "TONGA", "NAME_FAO": "Tonga", "NAME_LOCAL": "Tonga", "NAME_ARABI": "تونغا", "SOVEREIGN": "Tonga", "FIPS": "TN", "ISON": 776.0, "POP2000": 102321.0, "Shape_Leng": 8.4684318932299991, "Shape_Area": 0.0658688090698, "orig_ogc_fid": 231 }, "geometry": { "type": "Point", "coordinates": [ -174.821605000390377, -19.856709313588301 ] } },
{ "type": "Feature", "properties": { "OBJECTID": 235, "ID_0": 235, "ISO": "TUR", "NAME_ENGLI": "Turkey", "NAME_ISO": "TURKEY", "NAME_FAO": "Turkey", "NAME_LOCAL": "Turkiye", "NAME_ARABI": "تركيا", "SOVEREIGN": "Turkey", "FIPS": "TU", "ISON": 792.0, "POP2000": 66667997.0, "Shape_Leng": 136.71552931, "Shape_Area": 81.274457854299996, "orig_ogc_fid": 234 }, "geometry": { "type": "Point", "coordinates": [ 35.17621424496825, 39.05990551964608 ] } },
{ "type": "Feature", "properties": { "OBJECTID": 239, "ID_0": 239, "ISO": "UGA", "NAME_ENGLI": "Uganda", "NAME_ISO": "UGANDA", "NAME_FAO": "Uganda", "NAME_LOCAL": "Uganda", "NAME_ARABI": "أوغندا", "SOVEREIGN": "Uganda", "FIPS": "UG", "ISON": 800.0, "POP2000": 23300162.0, "Shape_Leng": 25.236754616399999, "Shape_Area": 19.629896237200001, "orig_ogc_fid": 238 }, "geometry": { "type": "Point", "coordinates": [ 32.391113871859083, 1.280350983948583 ] } }
]
}
